{"type":"FeatureCollection","features":[
{"type":"Feature","geometry":{"type":"Point","coordinates":[-0.091,51.514]},"properties":{"name":"US Embassy London","host_city":"London","country":"GB","operating_country":"US"}},
{"type":"Feature","geometry":{"type":"Point","coordinates":[2.321,48.868]},"properties":{"name":"US Embassy Paris","host_city":"Paris","country":"FR","operating_country":"US"}},
{"type":"Feature","geometry":{"type":"Point","coordinates":[13.382,52.516]},"properties":{"name":"US Embassy Berlin","host_city":"Berlin","country":"DE","operating_country":"US"}},
{"type":"Feature","geometry":{"type":"Point","coordinates":[139.744,35.676]},"properties":{"name":"US Embassy Tokyo","host_city":"Tokyo","country":"JP","operating_country":"US"}},
{"type":"Feature","geometry":{"type":"Point","coordinates":[116.441,39.953]},"properties":{"name":"US Embassy Beijing","host_city":"Beijing","country":"CN","operating_country":"US"}},
{"type":"Feature","geometry":{"type":"Point","coordinates":[37.607,55.756]},"properties":{"name":"US Embassy Moscow","host_city":"Moscow","country":"RU","operating_country":"US"}},
{"type":"Feature","geometry":{"type":"Point","coordinates":[35.219,31.772]},"properties":{"name":"US Embassy Jerusalem","host_city":"Jerusalem","country":"IL","operating_country":"US"}},
{"type":"Feature","geometry":{"type":"Point","coordinates":[36.724,-1.279]},"properties":{"name":"US Embassy Nairobi","host_city":"Nairobi","country":"KE","operating_country":"US"}},
{"type":"Feature","geometry":{"type":"Point","coordinates":[77.210,28.598]},"properties":{"name":"US Embassy New Delhi","host_city":"New Delhi","country":"IN","operating_country":"US"}},
{"type":"Feature","geometry":{"type":"Point","coordinates":[-43.172,-22.955]},"properties":{"name":"US Consulate Rio","host_city":"Rio de Janeiro","country":"BR","operating_country":"US"}},
{"type":"Feature","geometry":{"type":"Point","coordinates":[44.366,33.326]},"properties":{"name":"US Embassy Baghdad","host_city":"Baghdad","country":"IQ","operating_country":"US"}},
{"type":"Feature","geometry":{"type":"Point","coordinates":[69.277,41.317]},"properties":{"name":"US Embassy Tashkent","host_city":"Tashkent","country":"UZ","operating_country":"US"}},
{"type":"Feature","geometry":{"type":"Point","coordinates":[126.998,37.548]},"properties":{"name":"US Embassy Seoul","host_city":"Seoul","country":"KR","operating_country":"US"}},
{"type":"Feature","geometry":{"type":"Point","coordinates":[151.187,-33.863]},"properties":{"name":"US Consulate Sydney","host_city":"Sydney","country":"AU","operating_country":"US"}},
{"type":"Feature","geometry":{"type":"Point","coordinates":[32.581,29.977]},"properties":{"name":"US Embassy Cairo","host_city":"Cairo","country":"EG","operating_country":"US"}},
{"type":"Feature","geometry":{"type":"Point","coordinates":[46.688,24.688]},"properties":{"name":"US Embassy Riyadh","host_city":"Riyadh","country":"SA","operating_country":"US"}},
{"type":"Feature","geometry":{"type":"Point","coordinates":[28.979,41.010]},"properties":{"name":"US Consulate Istanbul","host_city":"Istanbul","country":"TR","operating_country":"US"}},
{"type":"Feature","geometry":{"type":"Point","coordinates":[-99.190,19.427]},"properties":{"name":"US Embassy Mexico City","host_city":"Mexico City","country":"MX","operating_country":"US"}},
{"type":"Feature","geometry":{"type":"Point","coordinates":[-77.042,38.916]},"properties":{"name":"Russian Embassy Washington","host_city":"Washington DC","country":"US","operating_country":"RU"}},
{"type":"Feature","geometry":{"type":"Point","coordinates":[-0.188,51.498]},"properties":{"name":"Russian Embassy London","host_city":"London","country":"GB","operating_country":"RU"}},
{"type":"Feature","geometry":{"type":"Point","coordinates":[13.343,52.524]},"properties":{"name":"Russian Embassy Berlin","host_city":"Berlin","country":"DE","operating_country":"RU"}},
{"type":"Feature","geometry":{"type":"Point","coordinates":[77.173,28.622]},"properties":{"name":"Russian Embassy New Delhi","host_city":"New Delhi","country":"IN","operating_country":"RU"}},
{"type":"Feature","geometry":{"type":"Point","coordinates":[116.454,39.951]},"properties":{"name":"Russian Embassy Beijing","host_city":"Beijing","country":"CN","operating_country":"RU"}},
{"type":"Feature","geometry":{"type":"Point","coordinates":[35.910,31.960]},"properties":{"name":"Russian Embassy Amman","host_city":"Amman","country":"JO","operating_country":"RU"}},
{"type":"Feature","geometry":{"type":"Point","coordinates":[-77.050,38.930]},"properties":{"name":"Chinese Embassy Washington","host_city":"Washington DC","country":"US","operating_country":"CN"}},
{"type":"Feature","geometry":{"type":"Point","coordinates":[2.264,48.862]},"properties":{"name":"Chinese Embassy Paris","host_city":"Paris","country":"FR","operating_country":"CN"}},
{"type":"Feature","geometry":{"type":"Point","coordinates":[-0.158,51.519]},"properties":{"name":"Chinese Embassy London","host_city":"London","country":"GB","operating_country":"CN"}},
{"type":"Feature","geometry":{"type":"Point","coordinates":[37.586,55.755]},"properties":{"name":"Chinese Embassy Moscow","host_city":"Moscow","country":"RU","operating_country":"CN"}},
{"type":"Feature","geometry":{"type":"Point","coordinates":[139.724,35.672]},"properties":{"name":"Chinese Embassy Tokyo","host_city":"Tokyo","country":"JP","operating_country":"CN"}},
{"type":"Feature","geometry":{"type":"Point","coordinates":[36.815,-1.292]},"properties":{"name":"Chinese Embassy Nairobi","host_city":"Nairobi","country":"KE","operating_country":"CN"}},
{"type":"Feature","geometry":{"type":"Point","coordinates":[-77.062,38.916]},"properties":{"name":"British Embassy Washington","host_city":"Washington DC","country":"US","operating_country":"GB"}},
{"type":"Feature","geometry":{"type":"Point","coordinates":[2.314,48.868]},"properties":{"name":"British Embassy Paris","host_city":"Paris","country":"FR","operating_country":"GB"}},
{"type":"Feature","geometry":{"type":"Point","coordinates":[13.390,52.518]},"properties":{"name":"British Embassy Berlin","host_city":"Berlin","country":"DE","operating_country":"GB"}},
{"type":"Feature","geometry":{"type":"Point","coordinates":[37.596,55.751]},"properties":{"name":"British Embassy Moscow","host_city":"Moscow","country":"RU","operating_country":"GB"}},
{"type":"Feature","geometry":{"type":"Point","coordinates":[77.175,28.617]},"properties":{"name":"British High Commission New Delhi","host_city":"New Delhi","country":"IN","operating_country":"GB"}},
{"type":"Feature","geometry":{"type":"Point","coordinates":[116.471,39.954]},"properties":{"name":"British Embassy Beijing","host_city":"Beijing","country":"CN","operating_country":"GB"}},
{"type":"Feature","geometry":{"type":"Point","coordinates":[139.752,35.684]},"properties":{"name":"British Embassy Tokyo","host_city":"Tokyo","country":"JP","operating_country":"GB"}},
{"type":"Feature","geometry":{"type":"Point","coordinates":[151.217,-33.870]},"properties":{"name":"British Consulate Sydney","host_city":"Sydney","country":"AU","operating_country":"GB"}},
{"type":"Feature","geometry":{"type":"Point","coordinates":[28.049,41.069]},"properties":{"name":"Chinese Consulate Istanbul","host_city":"Istanbul","country":"TR","operating_country":"CN"}},
{"type":"Feature","geometry":{"type":"Point","coordinates":[-46.658,-23.562]},"properties":{"name":"Chinese Consulate São Paulo","host_city":"São Paulo","country":"BR","operating_country":"CN"}}
]}
