{
  "type": "FeatureCollection",
  "features": [
    { "type": "Feature", "properties": { "name": "Port of Shanghai", "country": "China", "un_locode": "CNSHA", "type": "container" }, "geometry": { "type": "Point", "coordinates": [121.84, 30.63] } },
    { "type": "Feature", "properties": { "name": "Port of Singapore", "country": "Singapore", "un_locode": "SGSIN", "type": "container" }, "geometry": { "type": "Point", "coordinates": [103.82, 1.26] } },
    { "type": "Feature", "properties": { "name": "Port of Ningbo-Zhoushan", "country": "China", "un_locode": "CNNGB", "type": "container" }, "geometry": { "type": "Point", "coordinates": [121.95, 29.87] } },
    { "type": "Feature", "properties": { "name": "Port of Shenzhen", "country": "China", "un_locode": "CNSZX", "type": "container" }, "geometry": { "type": "Point", "coordinates": [113.89, 22.48] } },
    { "type": "Feature", "properties": { "name": "Port of Guangzhou", "country": "China", "un_locode": "CNCAN", "type": "container" }, "geometry": { "type": "Point", "coordinates": [113.43, 22.94] } },
    { "type": "Feature", "properties": { "name": "Port of Busan", "country": "South Korea", "un_locode": "KRPUS", "type": "container" }, "geometry": { "type": "Point", "coordinates": [129.04, 35.1] } },
    { "type": "Feature", "properties": { "name": "Port of Qingdao", "country": "China", "un_locode": "CNTAO", "type": "container" }, "geometry": { "type": "Point", "coordinates": [120.32, 36.07] } },
    { "type": "Feature", "properties": { "name": "Port of Hong Kong", "country": "China", "un_locode": "HKHKG", "type": "container" }, "geometry": { "type": "Point", "coordinates": [114.14, 22.29] } },
    { "type": "Feature", "properties": { "name": "Port of Tianjin", "country": "China", "un_locode": "CNTSN", "type": "mixed" }, "geometry": { "type": "Point", "coordinates": [117.74, 38.99] } },
    { "type": "Feature", "properties": { "name": "Port of Rotterdam", "country": "Netherlands", "un_locode": "NLRTM", "type": "mixed" }, "geometry": { "type": "Point", "coordinates": [4.29, 51.9] } },
    { "type": "Feature", "properties": { "name": "Port of Jebel Ali", "country": "UAE", "un_locode": "AEJEA", "type": "container" }, "geometry": { "type": "Point", "coordinates": [55.03, 25.02] } },
    { "type": "Feature", "properties": { "name": "Port of Antwerp-Bruges", "country": "Belgium", "un_locode": "BEANR", "type": "mixed" }, "geometry": { "type": "Point", "coordinates": [4.39, 51.27] } },
    { "type": "Feature", "properties": { "name": "Port Klang", "country": "Malaysia", "un_locode": "MYPKG", "type": "container" }, "geometry": { "type": "Point", "coordinates": [101.39, 3.0] } },
    { "type": "Feature", "properties": { "name": "Port of Kaohsiung", "country": "Taiwan", "un_locode": "TWKHH", "type": "container" }, "geometry": { "type": "Point", "coordinates": [120.27, 22.61] } },
    { "type": "Feature", "properties": { "name": "Port of Hamburg", "country": "Germany", "un_locode": "DEHAM", "type": "mixed" }, "geometry": { "type": "Point", "coordinates": [9.97, 53.54] } },
    { "type": "Feature", "properties": { "name": "Port of Los Angeles", "country": "US", "un_locode": "USLAX", "type": "container" }, "geometry": { "type": "Point", "coordinates": [-118.27, 33.74] } },
    { "type": "Feature", "properties": { "name": "Port of Long Beach", "country": "US", "un_locode": "USLGB", "type": "container" }, "geometry": { "type": "Point", "coordinates": [-118.21, 33.76] } },
    { "type": "Feature", "properties": { "name": "Port of Tanjung Pelepas", "country": "Malaysia", "un_locode": "MYTPP", "type": "container" }, "geometry": { "type": "Point", "coordinates": [103.55, 1.36] } },
    { "type": "Feature", "properties": { "name": "Port of Laem Chabang", "country": "Thailand", "un_locode": "THLCH", "type": "container" }, "geometry": { "type": "Point", "coordinates": [100.88, 13.08] } },
    { "type": "Feature", "properties": { "name": "Port of Colombo", "country": "Sri Lanka", "un_locode": "LKCMB", "type": "container" }, "geometry": { "type": "Point", "coordinates": [79.84, 6.94] } },
    { "type": "Feature", "properties": { "name": "Port of Piraeus", "country": "Greece", "un_locode": "GRPIR", "type": "container" }, "geometry": { "type": "Point", "coordinates": [23.63, 37.94] } },
    { "type": "Feature", "properties": { "name": "Port of Felixstowe", "country": "UK", "un_locode": "GBFXT", "type": "container" }, "geometry": { "type": "Point", "coordinates": [1.31, 51.95] } },
    { "type": "Feature", "properties": { "name": "Port of Savannah", "country": "US", "un_locode": "USSAV", "type": "container" }, "geometry": { "type": "Point", "coordinates": [-81.08, 32.08] } },
    { "type": "Feature", "properties": { "name": "Port of New York and New Jersey", "country": "US", "un_locode": "USNYC", "type": "container" }, "geometry": { "type": "Point", "coordinates": [-74.15, 40.67] } },
    { "type": "Feature", "properties": { "name": "Port of Jawaharlal Nehru (Nhava Sheva)", "country": "India", "un_locode": "INNSA", "type": "container" }, "geometry": { "type": "Point", "coordinates": [72.95, 18.95] } },
    { "type": "Feature", "properties": { "name": "Port of Mundra", "country": "India", "un_locode": "INMUN", "type": "mixed" }, "geometry": { "type": "Point", "coordinates": [69.72, 22.74] } },
    { "type": "Feature", "properties": { "name": "Port of Valencia", "country": "Spain", "un_locode": "ESVLC", "type": "container" }, "geometry": { "type": "Point", "coordinates": [-0.32, 39.44] } },
    { "type": "Feature", "properties": { "name": "Port of Algeciras", "country": "Spain", "un_locode": "ESALG", "type": "container" }, "geometry": { "type": "Point", "coordinates": [-5.44, 36.13] } },
    { "type": "Feature", "properties": { "name": "Port of Tanger Med", "country": "Morocco", "un_locode": "MAPTM", "type": "container" }, "geometry": { "type": "Point", "coordinates": [-5.5, 35.9] } },
    { "type": "Feature", "properties": { "name": "Port of Yokohama", "country": "Japan", "un_locode": "JPYOK", "type": "container" }, "geometry": { "type": "Point", "coordinates": [139.65, 35.44] } },
    { "type": "Feature", "properties": { "name": "Port of Tokyo", "country": "Japan", "un_locode": "JPTYO", "type": "container" }, "geometry": { "type": "Point", "coordinates": [139.79, 35.63] } },
    { "type": "Feature", "properties": { "name": "Port of Kobe", "country": "Japan", "un_locode": "JPUKB", "type": "container" }, "geometry": { "type": "Point", "coordinates": [135.2, 34.67] } },
    { "type": "Feature", "properties": { "name": "Port of Santos", "country": "Brazil", "un_locode": "BRSSZ", "type": "mixed" }, "geometry": { "type": "Point", "coordinates": [-46.31, -23.96] } },
    { "type": "Feature", "properties": { "name": "Port of Durban", "country": "South Africa", "un_locode": "ZADUR", "type": "mixed" }, "geometry": { "type": "Point", "coordinates": [31.03, -29.87] } },
    { "type": "Feature", "properties": { "name": "Port of Mombasa", "country": "Kenya", "un_locode": "KEMBA", "type": "mixed" }, "geometry": { "type": "Point", "coordinates": [39.65, -4.04] } },
    { "type": "Feature", "properties": { "name": "Port of Lagos (Apapa)", "country": "Nigeria", "un_locode": "NGAPP", "type": "mixed" }, "geometry": { "type": "Point", "coordinates": [3.38, 6.44] } },
    { "type": "Feature", "properties": { "name": "Port of Jeddah", "country": "Saudi Arabia", "un_locode": "SAJED", "type": "mixed" }, "geometry": { "type": "Point", "coordinates": [39.14, 21.43] } },
    { "type": "Feature", "properties": { "name": "Port of King Abdullah", "country": "Saudi Arabia", "un_locode": "SAKAC", "type": "container" }, "geometry": { "type": "Point", "coordinates": [39.07, 22.81] } },
    { "type": "Feature", "properties": { "name": "Port of Salalah", "country": "Oman", "un_locode": "OMSLL", "type": "container" }, "geometry": { "type": "Point", "coordinates": [54.0, 16.94] } },
    { "type": "Feature", "properties": { "name": "Port of Khalifa", "country": "UAE", "un_locode": "AEKHL", "type": "container" }, "geometry": { "type": "Point", "coordinates": [54.65, 24.82] } },
    { "type": "Feature", "properties": { "name": "Port of Bandar Abbas", "country": "Iran", "un_locode": "IRBND", "type": "mixed" }, "geometry": { "type": "Point", "coordinates": [56.28, 27.19] } },
    { "type": "Feature", "properties": { "name": "Port of Hai Phong", "country": "Vietnam", "un_locode": "VNHPH", "type": "container" }, "geometry": { "type": "Point", "coordinates": [106.69, 20.84] } },
    { "type": "Feature", "properties": { "name": "Port of Ho Chi Minh City", "country": "Vietnam", "un_locode": "VNSGN", "type": "container" }, "geometry": { "type": "Point", "coordinates": [106.76, 10.77] } },
    { "type": "Feature", "properties": { "name": "Port of Manila", "country": "Philippines", "un_locode": "PHMNL", "type": "container" }, "geometry": { "type": "Point", "coordinates": [120.95, 14.59] } },
    { "type": "Feature", "properties": { "name": "Port of Tanjung Priok", "country": "Indonesia", "un_locode": "IDJKT", "type": "container" }, "geometry": { "type": "Point", "coordinates": [106.89, -6.1] } },
    { "type": "Feature", "properties": { "name": "Port of Chittagong", "country": "Bangladesh", "un_locode": "BDCGP", "type": "mixed" }, "geometry": { "type": "Point", "coordinates": [91.83, 22.33] } },
    { "type": "Feature", "properties": { "name": "Port of Karachi", "country": "Pakistan", "un_locode": "PKKHI", "type": "mixed" }, "geometry": { "type": "Point", "coordinates": [66.98, 24.84] } },
    { "type": "Feature", "properties": { "name": "Port of Le Havre", "country": "France", "un_locode": "FRLEH", "type": "mixed" }, "geometry": { "type": "Point", "coordinates": [0.11, 49.49] } },
    { "type": "Feature", "properties": { "name": "Port of Bremerhaven", "country": "Germany", "un_locode": "DEBRV", "type": "container" }, "geometry": { "type": "Point", "coordinates": [8.58, 53.55] } },
    { "type": "Feature", "properties": { "name": "Port of Gothenburg", "country": "Sweden", "un_locode": "SEGOT", "type": "mixed" }, "geometry": { "type": "Point", "coordinates": [11.94, 57.69] } },
    { "type": "Feature", "properties": { "name": "Port of Vancouver", "country": "Canada", "un_locode": "CAVAN", "type": "mixed" }, "geometry": { "type": "Point", "coordinates": [-123.11, 49.29] } },
    { "type": "Feature", "properties": { "name": "Port of Houston", "country": "US", "un_locode": "USHOU", "type": "bulk" }, "geometry": { "type": "Point", "coordinates": [-95.27, 29.73] } },
    { "type": "Feature", "properties": { "name": "Port of Novorossiysk", "country": "Russia", "un_locode": "RUNVS", "type": "bulk" }, "geometry": { "type": "Point", "coordinates": [37.77, 44.73] } },
    { "type": "Feature", "properties": { "name": "Port of St. Petersburg", "country": "Russia", "un_locode": "RULED", "type": "mixed" }, "geometry": { "type": "Point", "coordinates": [30.25, 59.9] } },
    { "type": "Feature", "properties": { "name": "Port of Callao", "country": "Peru", "un_locode": "PECLL", "type": "container" }, "geometry": { "type": "Point", "coordinates": [-77.15, -12.05] } },
    { "type": "Feature", "properties": { "name": "Port of Cartagena", "country": "Colombia", "un_locode": "COCTG", "type": "container" }, "geometry": { "type": "Point", "coordinates": [-75.53, 10.4] } },
    { "type": "Feature", "properties": { "name": "Port of Balboa", "country": "Panama", "un_locode": "PABLB", "type": "container" }, "geometry": { "type": "Point", "coordinates": [-79.56, 8.96] } },
    { "type": "Feature", "properties": { "name": "Port of Melbourne", "country": "Australia", "un_locode": "AUMEL", "type": "container" }, "geometry": { "type": "Point", "coordinates": [144.92, -37.82] } },
    { "type": "Feature", "properties": { "name": "Port of Sydney", "country": "Australia", "un_locode": "AUSYD", "type": "container" }, "geometry": { "type": "Point", "coordinates": [151.21, -33.85] } },
    { "type": "Feature", "properties": { "name": "Port of Gioia Tauro", "country": "Italy", "un_locode": "ITGIT", "type": "container" }, "geometry": { "type": "Point", "coordinates": [15.89, 38.43] } }
  ]
}
