{"type":"FeatureCollection","features":[
{"type":"Feature","geometry":{"type":"Point","coordinates":[-112.860,33.390]},"properties":{"name":"Palo Verde Nuclear Generating Station","country":"US","type":"reactor","capacity_mw":3937,"status":"operating"}},
{"type":"Feature","geometry":{"type":"Point","coordinates":[-83.086,33.594]},"properties":{"name":"Plant Vogtle","country":"US","type":"reactor","capacity_mw":4540,"status":"operating"}},
{"type":"Feature","geometry":{"type":"Point","coordinates":[-96.050,28.800]},"properties":{"name":"South Texas Nuclear","country":"US","type":"reactor","capacity_mw":2700,"status":"operating"}},
{"type":"Feature","geometry":{"type":"Point","coordinates":[-119.780,35.394]},"properties":{"name":"Diablo Canyon","country":"US","type":"reactor","capacity_mw":2256,"status":"operating"}},
{"type":"Feature","geometry":{"type":"Point","coordinates":[-80.781,35.831]},"properties":{"name":"McGuire Nuclear Station","country":"US","type":"reactor","capacity_mw":2258,"status":"operating"}},
{"type":"Feature","geometry":{"type":"Point","coordinates":[-76.462,39.461]},"properties":{"name":"Calvert Cliffs","country":"US","type":"reactor","capacity_mw":1756,"status":"operating"}},
{"type":"Feature","geometry":{"type":"Point","coordinates":[-106.300,35.880]},"properties":{"name":"Los Alamos National Laboratory","country":"US","type":"research","capacity_mw":0,"status":"operating"}},
{"type":"Feature","geometry":{"type":"Point","coordinates":[-84.310,35.930]},"properties":{"name":"Oak Ridge National Laboratory","country":"US","type":"research","capacity_mw":0,"status":"operating"}},
{"type":"Feature","geometry":{"type":"Point","coordinates":[-119.530,46.550]},"properties":{"name":"Hanford Site","country":"US","type":"waste","capacity_mw":0,"status":"operating"}},
{"type":"Feature","geometry":{"type":"Point","coordinates":[-81.600,44.330]},"properties":{"name":"Bruce Nuclear Generating Station","country":"CA","type":"reactor","capacity_mw":6384,"status":"operating"}},
{"type":"Feature","geometry":{"type":"Point","coordinates":[-78.720,43.870]},"properties":{"name":"Darlington Nuclear","country":"CA","type":"reactor","capacity_mw":3512,"status":"operating"}},
{"type":"Feature","geometry":{"type":"Point","coordinates":[2.517,49.976]},"properties":{"name":"Gravelines","country":"FR","type":"reactor","capacity_mw":5460,"status":"operating"}},
{"type":"Feature","geometry":{"type":"Point","coordinates":[6.220,49.410]},"properties":{"name":"Cattenom","country":"FR","type":"reactor","capacity_mw":5448,"status":"operating"}},
{"type":"Feature","geometry":{"type":"Point","coordinates":[-1.880,49.680]},"properties":{"name":"La Hague Reprocessing Plant","country":"FR","type":"enrichment","capacity_mw":0,"status":"operating"}},
{"type":"Feature","geometry":{"type":"Point","coordinates":[4.730,44.330]},"properties":{"name":"Tricastin Enrichment","country":"FR","type":"enrichment","capacity_mw":0,"status":"operating"}},
{"type":"Feature","geometry":{"type":"Point","coordinates":[-3.130,51.210]},"properties":{"name":"Hinkley Point C","country":"GB","type":"reactor","capacity_mw":3260,"status":"under_construction"}},
{"type":"Feature","geometry":{"type":"Point","coordinates":[1.620,52.210]},"properties":{"name":"Sizewell B","country":"GB","type":"reactor","capacity_mw":1198,"status":"operating"}},
{"type":"Feature","geometry":{"type":"Point","coordinates":[-3.500,54.420]},"properties":{"name":"Sellafield Reprocessing","country":"GB","type":"waste","capacity_mw":0,"status":"operating"}},
{"type":"Feature","geometry":{"type":"Point","coordinates":[34.590,47.510]},"properties":{"name":"Zaporizhzhia Nuclear","country":"UA","type":"reactor","capacity_mw":5700,"status":"operating"}},
{"type":"Feature","geometry":{"type":"Point","coordinates":[30.294,51.388]},"properties":{"name":"Chernobyl","country":"UA","type":"reactor","capacity_mw":4000,"status":"decommissioned"}},
{"type":"Feature","geometry":{"type":"Point","coordinates":[29.050,59.830]},"properties":{"name":"Leningrad Nuclear","country":"RU","type":"reactor","capacity_mw":4000,"status":"operating"}},
{"type":"Feature","geometry":{"type":"Point","coordinates":[35.610,51.670]},"properties":{"name":"Kursk Nuclear","country":"RU","type":"reactor","capacity_mw":4000,"status":"operating"}},
{"type":"Feature","geometry":{"type":"Point","coordinates":[39.220,51.270]},"properties":{"name":"Novovoronezh Nuclear","country":"RU","type":"reactor","capacity_mw":2300,"status":"operating"}},
{"type":"Feature","geometry":{"type":"Point","coordinates":[43.310,54.930]},"properties":{"name":"Sarov (Arzamas-16) Nuclear Center","country":"RU","type":"research","capacity_mw":0,"status":"operating"}},
{"type":"Feature","geometry":{"type":"Point","coordinates":[60.080,57.240]},"properties":{"name":"Novouralsk Enrichment","country":"RU","type":"enrichment","capacity_mw":0,"status":"operating"}},
{"type":"Feature","geometry":{"type":"Point","coordinates":[56.128,53.759]},"properties":{"name":"Seversk (Tomsk-7)","country":"RU","type":"enrichment","capacity_mw":0,"status":"operating"}},
{"type":"Feature","geometry":{"type":"Point","coordinates":[138.600,37.430]},"properties":{"name":"Kashiwazaki-Kariwa","country":"JP","type":"reactor","capacity_mw":7965,"status":"operating"}},
{"type":"Feature","geometry":{"type":"Point","coordinates":[141.330,40.960]},"properties":{"name":"Rokkasho Reprocessing Plant","country":"JP","type":"enrichment","capacity_mw":0,"status":"under_construction"}},
{"type":"Feature","geometry":{"type":"Point","coordinates":[140.607,37.316]},"properties":{"name":"Fukushima Daiichi","country":"JP","type":"reactor","capacity_mw":4696,"status":"decommissioned"}},
{"type":"Feature","geometry":{"type":"Point","coordinates":[112.980,21.920]},"properties":{"name":"Taishan Nuclear","country":"CN","type":"reactor","capacity_mw":3500,"status":"operating"}},
{"type":"Feature","geometry":{"type":"Point","coordinates":[114.550,22.600]},"properties":{"name":"Daya Bay Nuclear","country":"CN","type":"reactor","capacity_mw":1968,"status":"operating"}},
{"type":"Feature","geometry":{"type":"Point","coordinates":[119.440,25.440]},"properties":{"name":"Fuqing Nuclear","country":"CN","type":"reactor","capacity_mw":6000,"status":"operating"}},
{"type":"Feature","geometry":{"type":"Point","coordinates":[121.121,30.436]},"properties":{"name":"Qinshan","country":"CN","type":"reactor","capacity_mw":3230,"status":"operating"}},
{"type":"Feature","geometry":{"type":"Point","coordinates":[103.830,36.060]},"properties":{"name":"Lanzhou Gas Diffusion Plant","country":"CN","type":"enrichment","capacity_mw":0,"status":"operating"}},
{"type":"Feature","geometry":{"type":"Point","coordinates":[129.330,35.320]},"properties":{"name":"Shin-Kori Nuclear","country":"KR","type":"reactor","capacity_mw":5600,"status":"operating"}},
{"type":"Feature","geometry":{"type":"Point","coordinates":[77.720,8.170]},"properties":{"name":"Kudankulam Nuclear","country":"IN","type":"reactor","capacity_mw":2000,"status":"operating"}},
{"type":"Feature","geometry":{"type":"Point","coordinates":[72.680,19.830]},"properties":{"name":"Tarapur Atomic Power","country":"IN","type":"reactor","capacity_mw":1400,"status":"operating"}},
{"type":"Feature","geometry":{"type":"Point","coordinates":[72.920,19.010]},"properties":{"name":"Bhabha Atomic Research Centre","country":"IN","type":"research","capacity_mw":0,"status":"operating"}},
{"type":"Feature","geometry":{"type":"Point","coordinates":[73.390,33.590]},"properties":{"name":"Kahuta Research Labs","country":"PK","type":"enrichment","capacity_mw":0,"status":"operating"}},
{"type":"Feature","geometry":{"type":"Point","coordinates":[66.780,24.840]},"properties":{"name":"KANUPP Nuclear","country":"PK","type":"reactor","capacity_mw":2200,"status":"operating"}},
{"type":"Feature","geometry":{"type":"Point","coordinates":[51.730,33.720]},"properties":{"name":"Natanz Enrichment","country":"IR","type":"enrichment","capacity_mw":0,"status":"operating"}},
{"type":"Feature","geometry":{"type":"Point","coordinates":[50.890,28.830]},"properties":{"name":"Bushehr Nuclear","country":"IR","type":"reactor","capacity_mw":1000,"status":"operating"}},
{"type":"Feature","geometry":{"type":"Point","coordinates":[35.140,31.000]},"properties":{"name":"Dimona Nuclear Research","country":"IL","type":"research","capacity_mw":0,"status":"operating"}},
{"type":"Feature","geometry":{"type":"Point","coordinates":[52.260,23.960]},"properties":{"name":"Barakah Nuclear","country":"AE","type":"reactor","capacity_mw":5600,"status":"operating"}},
{"type":"Feature","geometry":{"type":"Point","coordinates":[33.520,36.140]},"properties":{"name":"Akkuyu Nuclear","country":"TR","type":"reactor","capacity_mw":4800,"status":"under_construction"}},
{"type":"Feature","geometry":{"type":"Point","coordinates":[18.430,-33.680]},"properties":{"name":"Koeberg Nuclear","country":"ZA","type":"reactor","capacity_mw":1860,"status":"operating"}},
{"type":"Feature","geometry":{"type":"Point","coordinates":[27.930,-25.780]},"properties":{"name":"Pelindaba Nuclear Research","country":"ZA","type":"research","capacity_mw":0,"status":"operating"}},
{"type":"Feature","geometry":{"type":"Point","coordinates":[-44.460,-23.010]},"properties":{"name":"Angra Nuclear","country":"BR","type":"reactor","capacity_mw":1884,"status":"operating"}},
{"type":"Feature","geometry":{"type":"Point","coordinates":[125.750,39.800]},"properties":{"name":"Yongbyon Nuclear Center","country":"KP","type":"research","capacity_mw":0,"status":"operating"}},
{"type":"Feature","geometry":{"type":"Point","coordinates":[89.050,24.070]},"properties":{"name":"Rooppur Nuclear","country":"BD","type":"reactor","capacity_mw":2400,"status":"under_construction"}}
]}
